business_id,name,address,latitude,longitude,stars,good_for_meal,price,cuisine_1,cuisine_2
wuH4TPUo8oJo4E59xZKsNg,&pizza - Walnut,430 Walnut St,39.9492067124,-75.1659201062,4.5,"latenight, lunch, dinner",$$,Pizza,Vegetarian
rVGxva6cx2eID4ghDLVHJg,1225Raw Sushi and Sake Lounge,1225 Sansom St,39.9498493,-75.1615489,3.5,dinner,$$,Japanese,Korean
jEasa4Sbzy4NdLyzPPgQyg,2nd Story Brewing,117 Chestnut St,39.9484739,-75.1435556,4.0,"latenight, lunch, dinner",$$,American (New),Not Applicable
KYPhGJIibu_7ePIX4HNs6A,48th Street Grille,310 S 48th St,39.9531368,-75.2186607,4.5,"lunch, dinner",$$,American (New),Seafood
vVfy055EfLMdd0yJYHxiMQ,A La Mousse,145 N 11th St,39.9552167,-75.1574268,4.5,dessert,$$,Not Applicable,Not Applicable
3eJMsl41qwhcYlvoTF1ElQ,a.kitchen,135 S 18th St,39.950323,-75.170538,3.5,dinner,$$$,Modern European,American (New)
vhDWGF-8BfsxvS7Zo5Wv2w,Abe Fisher,1623 Sansom St,39.9507508655,-75.1682812761,4.5,dinner,$$$,Modern European,Not Applicable
ckbvLKwjEb836t-EDKsVVg,Abyssinia,229 S 45th St,39.9541658,-75.2116004,3.5,dinner,$$,Ethiopian,Not Applicable
Hr6aM0s-woIJaW6DJSbvNQ,Aki Nom Nom Sushi & Ramen,1210 Walnut St,39.948896,-75.1611319,3.5,"lunch, dinner",$$,Japanese,Not Applicable
XIKYdKWq72zUYsq8NBxcCQ,Aksum Cafe,4630 Baltimore Ave,39.9485474,-75.2163663,4.0,"dinner, brunch",$$,Mediterranean,Vegetarian
R17gwW6zn9ilslbdvKdgsg,Alma de Cuba,1623 Walnut St,39.9500808,-75.1685265,4.0,dinner,$$$,Latin American,Cuban
WgyhlYg3fnSgco4qLa20cg,Almaz Cafe,140 S 20th St,39.9506628,-75.1739332,4.0,"lunch, dinner",$$,Ethiopian,American (Traditional)
Al8y5FTs9tW5VsxTVy9ZMg,Alyan's Restaurant,603 S 4th St,39.9414081509,-75.1490631994,4.0,"lunch, dinner",$,Middle Eastern,Not Applicable
S8ZFYEgMejpChID8tzKo9A,Amada,217 Chestnut St,39.9485863525,-75.1449131188,4.0,dinner,$$,Spanish,Iberian
kfpwO_cdVQdTh2_oMDZ51Q,American Sardine Bar,1800 Federal St,39.936536,-75.17375,4.0,"latenight, dinner",$$,American,Not Applicable
waWvlZPOgPkfSTsnCju4aA,Amma's South Indian Cuisine,1518 Chestnut St,39.950914,-75.1664173,4.0,"lunch, dinner",$$,Indian,Not Applicable
UzU1N9XSoAUwn4Z8BIcvKw,Anastasi Seafood,1101 S 9th St,39.936139,-75.158194,4.0,"lunch, dinner",$$,Seafood,Not Applicable
cFSyJluKa2SHtgMMvlx6SQ,Angelo's Pizzeria,736 S 9th St,39.9406517812,-75.1576136221,4.5,"lunch, dinner",$$,Not Applicable,Not Applicable
rhdzgIxt3PikpHXm_QNCew,Animo Juice,1701 Arch St,39.9551232973,-75.1681293836,4.0,"lunch, breakfast",$$,Vegan,Mexican
lRbHFOIFuusN2WOR_ypQ_A,Ants Pants Café,2212 S St,39.9451562,-75.179105,4.0,"lunch, brunch, breakfast",$$,Not Applicable,Not Applicable
cbr2Db20L6P50CsxsX6c2A,Apricot Stone,"1040 N American St, Ste 601",39.9673315908,-75.1404441921,4.5,"dessert, dinner",$$,Mediterranean,Armenian
6GXMHrB8u-3nq87zE1Av0w,Baby Blues BBQ Philly,3432 Sansom St,39.953630921,-75.1929846337,3.5,"lunch, dinner",$$,Barbeque,Soul Food
vUkiYPpbkMXA99WneLSGkQ,Banana Leaf,1009 Arch St,39.9537784576,-75.157045316,3.5,dinner,$$,Asian Fusion,Not Applicable
oJxsRgj8Un9VAPXpaDuufA,Bank & Bourbon,1200 Market St,39.9517241479,-75.1601829009,3.5,"dinner, brunch",$$$,American (New),Not Applicable
617w8MQE3z1szmLvs0WfCw,Bar Bombón,133 S 18th St,39.9506592976,-75.1705476767,4.0,"lunch, dinner",$$,Latin American,Not Applicable
Mwc3n5Psw9wRaQ22vZWDYQ,Bar Hygge,1720 Fairmount Ave,39.9671254924,-75.1661240918,4.5,"dinner, brunch",$$,Comfort Food,Not Applicable
ZNWox30LIv7hV5k5YP8tCQ,Bar-Ly Chinatown,101 N 11th St,39.9540709,-75.1576818,4.0,"latenight, dinner",$$,American (New),Not Applicable
6ajnOk0GcY9xbb5Ocaw8Gw,Barbuzzo,110 S 13th St,39.950007,-75.1621577,4.5,dinner,$$,Italian,Mediterranean
YBak8o0xCiNN4sXr3izLbg,Barcade,1114 Frankford Ave,39.9673696,-75.1345292,3.5,,$$,Mexican,Not Applicable
6CUkqed0rhHtFwQ2i7Otsw,Barcelona Wine Bar Passyunk,1709 E Passyunk Ave,39.9280846,-75.1652545,4.5,"latenight, dinner",$$$,Spanish,Not Applicable
wbDRmtxaKRpBOjutvV6TEA,Barclay Prime,237 S 18th St,39.9487096,-75.1708743,4.5,dinner,$$$$,Steakhouses,Not Applicable
elSnD7Vuxnlg5_9gTqBqmA,Barra Rossa Ristorante,929 Walnut St,39.9485666341,-75.157169,3.5,dinner,$$,Italian,Not Applicable
V6Om7YZhlRQRU7WfuxHq8Q,Beck's Cajun Cafe,51 N 12th St,39.9533224742,-75.1590000821,4.0,lunch,$$,Cajun/Creole,Not Applicable
atZ_olNKXOG4rEr6mccN8g,Beiler's Bakery,51 N 12th St,39.953764,-75.159218,4.5,Unknown,$,Not Applicable,Not Applicable
-UJ7ZTb3zfmqZogmy3fnGg,Bellini,220 S 16th St,39.949084,-75.167867,3.0,dinner,$$,Italian,Not Applicable
tBQcVd9c0EHKAXLZn_v54g,Bibou,1009 S 8th St,39.9365031566,-75.1566941459,4.5,dinner,$$$,French,Not Applicable
QhgrhVKlXZtSY6gRThf8zA,Bing Bing Dim Sum,1648 E Passyunk Ave,39.9289898,-75.1647415,4.0,dinner,$$,Asian Fusion,Chinese
L4kfcADLCU4T33i7Z0CkuA,Bistro Romano,120 Lombard St,39.9419372505,-75.1446834884,4.0,dinner,$$,Italian,Mediterranean
4_-IcMpkF_sBRHomWZHNzA,Bistrot La Minette,623 S 6th St,39.9414622968,-75.1523852348,4.5,dinner,$$$,French,Breakfast & Brunch
uxZENO1iy7tz8MK77L3_GQ,Black & Brew,1523 E Passyunk Ave,39.9302929,-75.1627686,4.0,"lunch, brunch, breakfast",$,Breakfast & Brunch,Not Applicable
TunmRrfZb7bt53T6HJi4UQ,Bleu Sushi,262 S 10th St,39.9463986271,-75.157800703,4.5,"lunch, dinner",$$,Asian Fusion,Japanese
VwZ5NDbIu3elGQI6MzcXBA,Blue Corn,940 S 9th St,39.9377652566,-75.1583243076,4.5,"lunch, dinner",$$,Mexican,Not Applicable
q9Pupuw6Z2b8WaYK-MGt4g,Bluestone Lane,1701 Locust St,39.9489487,-75.1695317,4.0,"lunch, brunch, breakfast",$$,Australian,Not Applicable
_k1CIuPkY-uLFm8lABFG8Q,Bonchon Philadelphia,1020 Cherry St,39.954502,-75.15699,3.5,"latenight, lunch, dinner",$$,Asian Fusion,Korean
t3PkHzVTvPA8qRxKe9TIkQ,Booker's Restaurant and Bar,5021 Baltimore Ave,39.948041,-75.2242388,3.5,"dessert, lunch, dinner, brunch",$$,American (Traditional),American (New)
hxh1ongobphqXq30V13ukg,Bottle Bar East,1308 Frankford Ave,39.970471,-75.134725,4.0,"latenight, lunch, dinner",$$,American (Traditional),Not Applicable
PYUI1OJVksGUbCrteU68bw,Bourbon & Branch,705 N 2nd St,39.96207,-75.14104,4.0,"lunch, dinner, brunch",$$,American (Traditional),Not Applicable
9_B5sCqKBOKDAmYpByiFFg,Branzino Italian Ristorante,261 S 17th St,39.9480133,-75.1693585,3.5,dinner,$$,Italian,Not Applicable
8j3blTZChklt3j89jxx0fw,Brauhaus Schmitz,718 South St,39.9423058586,-75.1546984195,4.0,dinner,$$$,German,Not Applicable
nIlmZLuMs0JuBRvAHSIf8Q,Bredenbeck's Bakery & Ice Cream Parlor,8126 Germantown Ave,40.0724995,-75.202403,4.0,Unknown,$$,Not Applicable,Not Applicable
_f3JQU6IXpGmTLaSqGy79g,BRÜ Craft & Wurst,1318 Chestnut St,39.9503152253,-75.1624865435,3.5,"latenight, lunch, dinner",$$,German,Not Applicable
9c7MUiE6VI8NesjPdj5FkA,Bubblefish,909 Arch St,39.9536791,-75.1551081,4.0,"dessert, lunch, dinner",$$,Japanese,Taiwanese
pXRrRf8fDv6yU3xp1E25hA,Bud & Marilyn's,1234 Locust St,39.947787,-75.162293,4.0,"dinner, brunch",$$,American (Traditional),Not Applicable
nIAbuktMEzVjT4P9pG89rQ,Buddakan,325 Chestnut St,39.9489186,-75.1471667,4.0,dinner,$$$,Asian Fusion,Chinese
jULIPydhMj18KOI5OHTwfA,Buena Onda,1901 Callowhill St,39.9609147337,-75.1708267829,4.0,lunch,$$,Mexican,Not Applicable
pP_jeWrWq-lvMitmkM2Gkw,BurgerFi,1200 Arch St,39.9535213,-75.1597442,3.0,"lunch, dinner",$$,American (New),American (Traditional)
0oSSjekU-3GR8gselReWnA,Butcher and Singer,1500 Walnut St,39.9493338,-75.1661758,4.5,dinner,$$$$,American (Traditional),Not Applicable
jS3affmkXWrBnidXA-DIfQ,Butcher Bar,2034 Chestnut St,39.9520301,-75.1748960093,4.0,dinner,$$,Not Applicable,Not Applicable
8xTHtLoNIwdpf0FEvIpQIw,By George! Pizza Pasta & Cheesesteaks,51 N 12th St,39.9532222415,-75.1594696319,4.0,lunch,$$,Italian,Not Applicable
c5w3gViEODLmPJBCeAVUIQ,Byblos,116 S 18th St,39.9511992,-75.1706583,3.0,latenight,$$,Mediterranean,Middle Eastern
hUX1yAimviBIhb21D_KtcQ,Cactus Restaurant & Bar,4243 Main St,40.0245627,-75.2209958,3.0,dinner,$$,Mexican,Tex-Mex
d48Xrx8MhGtdaLvhcYzNWQ,Cafe Diem,1031 S 8th St,39.9362435,-75.15667,4.5,lunch,$,Vietnamese,Not Applicable
K7KHmHzxNwzqiijSJeKe_A,Cafe La Maude,816 N 4th St,39.963948,-75.144364,4.5,"lunch, brunch, breakfast",$$,Mediterranean,American (New)
TwnzM8mJn_nT2PJf1x-9kQ,Cafe Lift,428 N 13th St,39.960346,-75.159706,4.0,"brunch, breakfast",$$,American (New),Not Applicable
i6jA8vSHrP9LiUPHlqPVwA,Cafe Olé,147 N 3rd St,39.9535194938,-75.1448114998,4.0,"lunch, brunch, breakfast",$$,Mediterranean,Not Applicable
venWfi69QVylbyrvaPt0nQ,Cafe Ynez,2025 Washington Ave,39.9394117528,-75.1773281189,4.5,"lunch, dinner, brunch",$$,Mexican,Not Applicable
qsm7SkX60JsajT7Yz248FA,Café Soho,468 W Cheltenham Ave,40.0550205,-75.1260334,4.0,"latenight, dinner",$$,Asian Fusion,Japanese
qaDImxPguQz0jToNYvB1Eg,Café y Chocolate,1532 Snyder Ave,39.924584,-75.172676,4.5,"lunch, brunch",$$,Mexican,Not Applicable
wHkYLlZyPXllrQRlvidUlg,Campo's Philly Cheesesteaks,214 Market St,39.9497014,-75.1442745,3.5,lunch,$$,Not Applicable,Not Applicable
73UjNbSoQjQAOS45rcihFg,Cantina Dos Segundos,931 N 2nd St,39.9648195,-75.1402322,4.0,dinner,$$,Mexican,Not Applicable
4J06--ty2Ydj1---IsArLw,Cantina Los Caballitos,1651 E Passyunk Ave,39.9288976,-75.1644726699,3.5,dinner,$$,Mexican,Not Applicable
q1VOESxR99qJvpubnNxyJQ,Caribou Cafe,1126 Walnut St,39.9487531332,-75.1600949582,3.0,dinner,$$,French,Not Applicable
aa0xi7fgFJyA4qWux6vz0A,Carmen's Famous Italian Hoagies,12th St & Arch St,39.9532735358,-75.1593375206,3.5,lunch,$$,Italian,Not Applicable
JomDoQafikclSVVCPkWjnA,Cedar Park Cafe,4914 Baltimore Ave,39.94796,-75.22198,4.0,"lunch, brunch, breakfast",$,Not Applicable,Vegetarian
rOspf7E1Y8YAbVXTZyl-tQ,Cedar Point Bar and Kitchen,2370 E Norris St,39.9768423,-75.1277643,4.0,"lunch, dinner, brunch",$$,American (Traditional),Southern
swcfmflnWlhnbvPOHvPq_A,Chabaa Thai Bistro,4343 Main St,40.025630123,-75.2234600857,4.0,dinner,$$,Thai,Noodles
7hpUoYdAVToZXwuPRgoqdA,Chapterhouse Café & Gallery,620 S 9th St,39.9419516309,-75.1573562007,4.5,Unknown,$$,Not Applicable,Not Applicable
of-GVqY0G_UDHXT9Xg_ADQ,Charlie Was a Sinner,131 S 13th St,39.9495123,-75.1617661,4.0,"latenight, dinner",$$,American (Traditional),Vegan
ckF4SrqKfSm8ndr88on1dA,Chart House,555 S Columbus Blvd,39.9411270506,-75.1404787123,2.5,dinner,$$$,American,Seafood
eMiN8nm70jjKg8izikVWDA,Chickie's & Pete's,1526 Packer Ave,39.9114175,-75.1745111,3.5,"lunch, dinner",$$,American (New),Not Applicable
6zEWIsb6Lhr3BeoC3gm1lw,Chickie's and Pete's,8500 Essington Ave,39.8774228729,-75.2405207186,2.5,"lunch, dinner",$$,American (Traditional),Seafood
gjFUrbSMo1rA1jgG5IhA2A,Chima Steakhouse,1901 John F Kennedy Blvd,39.9547768017,-75.1726724432,3.5,dinner,$$$$,Brazilian,American (New)
iksVwRfpWymIUUFqw0tXpw,Chubby Cattle,146 N 10th St,39.9550104,-75.1561342,4.5,"dessert, latenight, lunch, dinner",$$$,Asian Fusion,Not Applicable
PgUoeGam08nCaLWJwrmrWQ,Chubbys Steaks,5826 Henry Ave,40.0291319,-75.2063122,4.0,"lunch, dinner",$$,Not Applicable,Not Applicable
a62d7e_xXeljJcOUHkJjkg,Circles Contemporary Asian,1516 Tasker St,39.9306471,-75.1707286,3.5,Unknown,$$,Asian Fusion,Thai
9e_rrzyTolsH1RUXHOvsMA,Circles Contemporary Thai,812 N 2nd St,39.9633982,-75.1411529,3.5,dinner,$$,Asian Fusion,Thai
tYn8hGpZiRgJ8cP2FcI_YQ,City Tap House,100 N18th St,39.9557454576,-75.1698437,4.0,"lunch, dinner",$$,American (New),Not Applicable
jxEMFqwDJXjCxmcm5t5jVQ,Cleavers,108 S 18th St,39.9514103,-75.1706011,4.0,"lunch, dinner",$$,Not Applicable,Not Applicable
BiSdlIuOlf6MqyEZ6aWhfQ,Con Murphy's,1700 Benjamin Franklin Pkwy,39.95602,-75.167795,3.5,"latenight, lunch, dinner",$$,Irish,Not Applicable
4hQxm6xckt0EGqfAGzQDyg,Copabanana,344 South St,39.9415037,-75.1489862,2.5,"latenight, lunch, dinner",$$,American (Traditional),Not Applicable
C_EtrXTygRX5RTUOKtO6Dg,Copabanana,4000 Spruce St,39.9515586,-75.2032578,3.0,"latenight, dinner",$$,American (Traditional),Not Applicable
AnhgZCyjhzU8JVxl2ftJKQ,Cosmi's Deli,1501 S 8th St,39.9302586,-75.1579964,4.0,"lunch, dinner",$$,Not Applicable,Not Applicable
GUMVStVaJfWmCIpQA4TtHg,Crazy Sushi,1837 Chestnut St,39.952045,-75.17167,4.0,"lunch, dinner",$$,Japanese,Not Applicable
JHRlwxxKY0JJcU97rJ-Bug,Cuba Libre Restaurant & Rum Bar - Philadelphia,10 S 2nd St,39.949589,-75.14391,3.5,dinner,$$$,Cuban,Latin American
RQAF6a0akMiot5lZZnMNNw,Dalessandro’s Steaks & Hoagies,600 Wendover St,40.029494,-75.2059714,4.0,"lunch, dinner",$$,Not Applicable,Not Applicable
kbXpjBSweedxQ1WrlJ5i7Q,Dan Dan,126 S 16th St,39.950247,-75.167598,4.0,"lunch, dinner",$$,Chinese,Taiwanese
erz6oUEJdx787WyOlxMARw,Dante & Luigi's,762 S 10th St,39.9400687845,-75.1594229629,4.0,dinner,$$,Italian,Not Applicable
Gr6nYrQ_-3p4LcE4M84lTw,Dave & Buster's,325 N Christopher Columbus Blvd,39.9570239499,-75.1374835117,2.5,"latenight, dinner",$$,American (Traditional),Not Applicable
T9C1od-JorSPXwXgzSqM9Q,David's Mai Lai Wah,1001 Race St,39.95549425,-75.1559746,3.0,latenight,$$,Chinese,Seafood
Uky0DD3LU4C7eyNDhpmOXg,Day By Day,2101 Sansom St,39.9516785914,-75.1757079913,4.0,brunch,$$,American (Traditional),Not Applicable
4R2KR_-FybS7oegGrXjHVg,Del Frisco's Double Eagle Steakhouse,1428-1432 Chestnut St,39.9509564,-75.1654591,4.0,dinner,$$$$,American (Traditional),Seafood
Ea4G-2lAbodTM7FBaSO-tQ,Del Rossi's Cheesesteak,538 N 4th St,39.9615077,-75.1450865,3.5,"latenight, lunch, dinner",$$,Not Applicable,Not Applicable
RnhLCG4N9MPy6ZRzq787Cg,Devil's Alley Bar & Grille,1907 Chestnut St,39.95214,-75.1722162,3.5,dinner,$$,American (New),Not Applicable
Y7EalRsCafsApK5DcL_mTg,Devil's Den,1148 S 11th St,39.9358085,-75.1620574,3.5,dinner,$$,American (Traditional),Not Applicable
aUoMG97DMJG4nmwhT6z1zA,Devon Seafood Grill,225 S 18th St,39.94949,-75.17066,3.5,dinner,$$$,Seafood,Not Applicable
4hv1n1VBzMvE-T4UtIcOcw,Di Bruno Bros.,1730 Chestnut St,39.951311,-75.1700653,4.0,Unknown,$$,American (New),Italian
AGlh4ZDv6jnoiYfz7At9mw,Dim Sum Garden,1020 Race St,39.955399,-75.156727,4.0,"lunch, dinner",$$,Asian Fusion,Chinese
0S3TvsmbCeOZ9UitnpRd1A,Dim Sum House,1930 Chestnut St,39.9518328,-75.173394,4.0,dinner,,Asian Fusion,Not Applicable
zU5PPd9j4bYC_MepNSEDcA,Dim Sum House,"3939 Chestnut St, Fl 2",39.9557715,-75.2016544,4.0,"lunch, dinner",$$,Chinese,Cantonese
kVTHnhgYUw-Pmr7wgDB4_g,Distrito,3945 Chestnut St,39.9558813,-75.2020031,3.5,dinner,$$,Mexican,Not Applicable
JVDHxMnKjif8XdXVFWiClg,Dizengoff,1625 Sansom St,39.9506511,-75.1683346,4.5,lunch,$$,Middle Eastern,Not Applicable
99e7bysta1myyrQogFEWUQ,Dock Street Brewery,701 S 50th St,39.9477306374,-75.2227761947,4.0,dinner,$$,American (New),Not Applicable
BnprLJ4Lr33--YjTmgk9Zg,Doma,1822 Callowhill St,39.9602728,-75.1692394,4.0,dinner,$$,Korean,Japanese
Ipkx4Sa7ybn8C6LtTqTztw,Double Knot,120 S 13th St,39.9496993,-75.162185,4.5,dinner,$$$,Japanese,Not Applicable
pWzrmh1oiU9ngWXGHKnnwQ,Down Home Diner,51 N 12th St,39.9530183899,-75.1594000959,3.0,"lunch, breakfast",$$,American (New),Not Applicable
YO9Ycz_chfmoW4WI9Ou0ag,Drinker's Pub,1903 Chestnut St,39.9521221,-75.1720791,3.5,latenight,$,Not Applicable,Not Applicable
44Xh-IjWDSn7XTw1hzO50g,Dutch Eating Place,1136 Arch St,39.9534618209,-75.1593213069,4.5,"lunch, brunch, breakfast",$$,Breakfast & Brunch,Not Applicable
s9ceDy-cVHe0uzvZpWq87Q,E Mei Restaurant,915 Arch St,39.9536815,-75.1554273,4.0,"lunch, dinner",$$,Chinese,Szechuan
ulfMNXHzGVleRf2U5KwiQQ,Earth Bread + Brewery,7136 Germantown Ave,40.059176,-75.1904467,4.0,dinner,$$,American (New),Not Applicable
CuyQt_cUFS1i738GXTNciw,Effie's Restaurant,1127 Pine St,39.9451062,-75.1606111,3.5,dinner,$$,Mediterranean,Greek
EzjysPg2-lVX1E0ibStUXw,Ekta Indian Cuisine,1142 Crease St,39.9692049,-75.1325733,4.0,dinner,$$,Indian,Pakistani
JUlsvVAvZvGHWFfkKm0nlg,El Camino Real,1040 N 2nd St,39.9673004,-75.1403984,3.5,dinner,$$,Mexican,Tex-Mex
qRgeV1CMZawRblc2qjHo_g,El Jarocho,1138 S 13th St,39.936492,-75.165011,4.0,"lunch, dinner",$,Mexican,Not Applicable
oqy15jhe1lOXttEvd4Srog,El Poquito,8201 Germantown Ave,40.0735965366,-75.2026142093,3.0,dinner,$$,Mexican,Not Applicable
SCjUeZfjafJ88fWWQjRh2w,El Rey,2013 Chestnut St,39.9522598,-75.1740323,3.5,dinner,$$,Mexican,Tex-Mex
9PZxjhTIU7OgPIzuGi89Ew,El Vez,121 S 13th St,39.9497020026,-75.1617702842,4.0,dinner,$$,Mexican,Not Applicable
oqbhVgliVJH-iRa3AnD-3A,Elixr Coffee Roasters,207 S Sydenham St,39.9493333403,-75.1667326512,4.5,,$,Not Applicable,Not Applicable
8P8HIysyyGbG8_94cG1Jyg,Entree BYOB,1608 South St,39.9440110213,-75.1691403878,4.5,dinner,$$$,American (New),Italian
IcLm9Z1zphLnzUvrFK6aiA,Erawan Thai Cuisine,123 S 23rd St,39.951799,-75.178213,3.5,"lunch, dinner",$$,Thai,Not Applicable
AaTpjyw-EiODgi3tR4Xr-g,Estia,1405 Locust St,39.9483920508,-75.1653502258,4.0,dinner,$$$,Mediterranean,Greek
BPBTCvmUfRnEH6yyABzOzA,Evil Genius Beer,1727 N Front St,39.9757885,-75.133938,4.0,lunch,$$,Not Applicable,Not Applicable
xxL2_-oExRCwKs_Nyr0KiQ,Fadó Irish Pub,1500 Locust St,39.9483513654,-75.1666795343,3.5,latenight,$$,Irish,Not Applicable
03jQGGJ2ch0uHTtW-UUUqg,Famous 4th Street Delicatessen,700 S 4th St,39.9404915,-75.1496827,4.0,"lunch, brunch, breakfast",$$,Not Applicable,Not Applicable
KHQXmUFiAD0FHvrMSakJBA,Fare,2028 Fairmount Ave,39.967061,-75.171243,3.5,dinner,$$,American (New),Vegetarian
h7TO_IsmLCYmKKDVOOIeFw,Fat Salmon,719 Walnut St,39.9481318,-75.153395,4.5,dinner,$$,Japanese,Not Applicable
-Or44IdY51Ukd618kikmtA,Federal Donuts,701 N Seventh St,39.9641791314,-75.1494241306,4.0,"lunch, breakfast",$,Not Applicable,Not Applicable
41LEg4ZgFDVnZfToxGXiGA,Federal Donuts,3428 Sansom St,39.9535536,-75.1931768,4.0,breakfast,$,Not Applicable,Not Applicable
Oun4NN-u5yiHIxDqtJnxgA,Federal Donuts,1219 S 2nd St,39.932223,-75.147463,4.0,"lunch, breakfast",$,American (Traditional),Korean
eLi0bpsDoWQkBhJX1d46tg,Fergie's Pub,1214 Sansom St,39.9495961,-75.1611276,3.5,"latenight, dinner",$$,Irish,Southern
3ldp8B52AOzNSFnPMAY0ww,Fette Sau,1208 Frankford Ave,39.9692358,-75.134788,4.0,dinner,$$,Barbeque,Not Applicable
4zQV6v8TwEYMwI9Ekdf19g,Figs,2501 Meredith St,39.9685113,-75.1785123,4.0,dinner,$$,Moroccan,Not Applicable
Og1HekJMHKqsvtWaUp9V8g,Flying Monkey Bakery,12th St & Arch St,39.953807711,-75.1586299373,3.5,Unknown,$,Not Applicable,Not Applicable
cGX-1IUwXOjkUqZbkKYcjw,Fogo de Chao,1337 Chestnut St,39.9509166,-75.1629711,4.0,dinner,$$$$,Brazilian,Not Applicable
y1Z9tymuBGVDZnYZoLk-2Q,Fork,306 Market St,39.9500007,-75.146124,4.0,dinner,$$$,American (New),Not Applicable
1CCG0WYSoR8ejdgD5-Gaqg,Francoluigi's Pizzeria & Italian Restaurant,1549 S 13th St,39.9302667,-75.1659499,4.0,dinner,$$,Italian,Not Applicable
ELY0HI8GDEx0jkmREVna0A,Frankford Hall,1210 Frankford Ave,39.969439,-75.134647,4.0,latenight,$$,German,Not Applicable
C9UylQTOh7uwZo4a7QhLyg,Friday Saturday Sunday,261 S 21st St,39.948937,-75.1759543,4.5,dinner,$$$$,American (New),Not Applicable
JrG4NINLspXPNhSXg7Q07Q,Front Street Cafe,1253 N Front St,39.9702007,-75.1356343,4.0,"lunch, brunch, breakfast",$$,American (New),Vegan
LgAuYz5cQe3zTxuteJ4VyQ,Fuel Center City,1225 Walnut St,39.949130566,-75.1616937821,3.5,lunch,$$,Vegetarian,Not Applicable
EdopUxxfxqEA79Vcy_dT3g,Fuel,1917 E Passyunk Ave,39.9261735,-75.1675686,3.5,lunch,$$,American,Not Applicable
JDv3h1xRFIW8fXckqgTdRg,Fuji Mountain,2030 Chestnut St,39.9520801,-75.1747619,4.0,dinner,$$,Japanese,Not Applicable
IkY2ticzHEn4QFn8hQLSWg,Geno's Steaks,1219 S 9th St,39.933836785,-75.1588137524,2.5,"latenight, lunch",$$,Not Applicable,Not Applicable
sVZb87xjhbCWHQ2UXOGLrA,Giorgio On Pine,1328 Pine St,39.9453393812,-75.1644544588,4.0,dinner,$$,Italian,Not Applicable
LizaSXXtaPjbxGtwo_rw9Q,Gnocchi,613 E Passyunk Ave,39.9413851,-75.1503311,4.0,dinner,$$,Italian,Not Applicable
mlrzM-jUkKot28XJhScuuA,Goldie,1526 Sansom St,39.9502275,-75.1668635,4.5,lunch,$$,Mediterranean,Middle Eastern
Iw8uqNPxviwcgxtruAx_LA,Good Dog Bar,224 S 15th St,39.948793,-75.1662055,4.0,dinner,$$,American,Not Applicable
-cEFKAznWmI0cledNOIQ7w,Gran Caffe L'Aquila,1716 Chestnut St,39.9512789,-75.1695181,4.5,"dessert, lunch, dinner",$$,Italian,Not Applicable
ADe114o7Z4vb1O6HkM6YEA,Greek Lady,224 S 40th St,39.9534811107,-75.2029253184,3.5,"lunch, dinner",$,Greek,Mediterranean
rYqmaOIULRouz_1db07OdQ,Green Eggs Cafe,1306 Dickinson St,39.931348,-75.166497,4.0,"brunch, breakfast",$$,American (New),Not Applicable
0RuvlgTnKFbX3IK0ZOOocA,Green Eggs Café,212 S 13th St,39.9481225533,-75.1624631121,4.0,"brunch, breakfast",$$,American (New),Not Applicable
KfIPQSLSj_rJ9zbsdO7wFQ,Greg's Kitchen,4460 Main St,40.0267886888,-75.2267333767,4.0,"lunch, brunch, breakfast",$,American (Traditional),Not Applicable
9A5Gw0At6so0x-vWM0_JZw,Grindcore House,1515 S 4th St,39.929015,-75.1517365,4.5,"dessert, lunch, breakfast",$,Vegetarian,Vegan
OChSrnaj5tQ1-wm7zoVT4w,Gyu-Kaku Japanese BBQ,1901 Callowhill St,39.9607160127,-75.1701319521,3.5,dinner,$$,Asian Fusion,Japanese
bffLbfi1IEAff5C2IHJvFA,Han Dynasty,4356 Main St,40.0253737,-75.2238628,3.5,"lunch, dinner",$$,Chinese,Not Applicable
MMRRS6YhVRx_iN5-JhMRYg,Han Dynasty,3711 Market St,39.9567105161,-75.1971027811,4.0,"lunch, dinner",$$,Chinese,Szechuan
qISf5ojuYbD9h71NumGUQA,Han Dynasty,123 Chestnut St,39.9485257778,-75.143727802,4.0,dinner,$$,Chinese,Szechuan
JVZ_c3k01uAIas5B61iISg,Hard Rock Cafe,1113 Market St,39.9520316095,-75.1596930614,3.0,"lunch, dinner",$$,American (New),American (Traditional)
l8VedGQFMLtTz2zRmpTlxA,Hardena/Waroeng Surabaya Restaurant,1754 S Hicks St,39.9284359,-75.1712655,4.5,"lunch, dinner",$$,Asian Fusion,Indonesian
CYSPKiVdoPX3erovujnE9Q,Harp & Crown,1525 Sansom St,39.9504170438,-75.1664282754,4.0,dinner,$$,American (Traditional),Not Applicable
v45E6gg6MrAziTepkiWByA,Harper's Garden,31 S 18th St,39.9522045,-75.1695409,4.0,"dessert, lunch, dinner, brunch",$$,American,Not Applicable
IGxrAQcqw8Mr1x9WLXQsNA,Hawthornes Biercafé,738 S 11th St,39.9410364,-75.1608686,4.0,brunch,$$,American,Not Applicable
PhLYLCjM_dS_seS_fMBVeg,Helium Comedy Club,2031 Sansom St,39.9515214293,-75.1748099467,3.5,Unknown,$$,American (Traditional),Not Applicable
5AGVyIa1_XVUqXGbQXRmiQ,Heritage,914 N 2nd St,39.9645949,-75.1408296,4.0,dinner,$$,American (New),Not Applicable
Zqd_DHAtrdzRJ8u3zwrvEA,Hershel's East Side Deli,51 N 12th St,39.953284,-75.159403,4.5,lunch,$$,Not Applicable,Not Applicable
trwHwsXOVV-ZmF-MtP98BA,High Street Philadelphia,101 S 9th St,39.949579,-75.1553831,4.0,"lunch, brunch, breakfast",$$,American (New),Not Applicable
zjTBfbvbN2Ps6_Ar0w-fuQ,Hinge Cafe,2652 E Somerset St,39.9792581,-75.1121554,4.5,"brunch, breakfast",$$,American (New),Not Applicable
LnZvGYbqozanOSevcftnrw,HipCityVeg - University City,214 S 40th St,39.953549,-75.202991,4.0,"lunch, dinner",$$,Vegan,Not Applicable
Dv6RfXLYe1atjgz3Xf4GGw,HipCityVeg,127 S 18th St,39.950774,-75.170397,4.0,lunch,$$,Vegetarian,Not Applicable
kiA1mrC2ZVoRmpsWgAT7ow,Hippot Shabu Shabu,1002 Arch St,39.953486,-75.156575,3.5,"lunch, dinner",$$,Asian Fusion,Chinese
_34KJPR-T0HP9USJw1nCfw,Hiro Ramen House,1102 Chestnut St,39.95001,-75.158862,4.0,"lunch, dinner",$$,Japanese,Not Applicable
cXSyVvOr9YRN9diDkaWs0Q,Honey's Sit-N-Eat,800 N 4th St,39.96399,-75.1444822,4.0,"brunch, breakfast",$$,American (Traditional),Southern
WYel6hMEEPNwzVUlVBacbw,honeygrow,110 S 16th St,39.9507231094,-75.1675008738,3.5,lunch,$$,Vegetarian,Not Applicable
UfNta35H6m-z2xN9XFI77g,House of Thai Cuisine,3520 Cottman Ave,40.0372006,-75.0421226,4.5,dinner,$$,Thai,Not Applicable
bgxDswHIdFP0Go0pNfyAAw,Hummus Grill,3931 Walnut St,39.954349,-75.2021586,4.0,"lunch, dinner",$,Mediterranean,Middle Eastern
Rzx2E5XgTeGU7FEbUZ-bGg,IKEA,2206 Christopher Columbus Blvd,39.9171275,-75.1418318,3.0,Unknown,$$,Not Applicable,Not Applicable
-0TffRSXXIlBYVbb5AwfTg,IndeBlue Modern Indian Food & Spirits,205 South 13th St,39.9485078263,-75.1619688173,4.5,dinner,$$,Indian,Not Applicable
1OfhM-ZKvcpxyxptCCzEwA,Independence Beer Garden,100 S Independence Mall W,39.9502943,-75.150981,3.5,lunch,$$,American (New),American (Traditional)
WP9GAuhvmUhm8MAxMqhgrQ,Indian Kitchen Lovash,236 South St,39.94126,-75.1470703,3.5,dinner,$$,Indian,Pakistani
9-tZDrMjJYBbpCJoU3WXAQ,Indian Restaurant,1634 South St,39.9440532,-75.1699635,3.5,"lunch, dinner",$$,Indian,Not Applicable
KrKQChZ1hwHHVaUK9Zc-Ag,Iron Hill Brewery & Restaurant,1150 Market St,39.9515764639,-75.1596684381,4.0,dinner,$$,American (Traditional),Not Applicable
ohWH383r60AREWh-aphpSw,Iron Hill Brewery & Restaurant,8400 Germantown Ave,40.0750694,-75.2055144,3.5,"lunch, dinner",$$,American (New),American (Traditional)
oziGQYLaEWOpNmPKrZP86g,Isgro Pastries,1009 Christian St,39.9393373391,-75.1597427314,4.5,Unknown,$$,Not Applicable,Not Applicable
YPLfRswyryjjW3VJa-SdaA,Ishkabibble's,337 S St,39.9416787531,-75.1487875936,4.0,"lunch, dinner",$$,Seafood,Not Applicable
BryQISFnkCdcJET-tpAx3w,Isot Mediterranean Cuisine,622 S 6th St,39.9414231194,-75.1524895976,4.5,"dessert, dinner",$$,Mediterranean,Middle Eastern
eqNutOMnPqKa9QDAY6KfEw,J'aime French Bakery,212 S 12th St,39.948081,-75.1608093,4.5,Unknown,$$,Not Applicable,Not Applicable
1Ck2drCXGh1h5bhc9aIRpg,Jack's Firehouse,2130 Fairmount Ave,39.9670823,-75.1733028,3.5,dinner,$$,American (New),Not Applicable
rK4MQ-vybY5KXI73o-0mlw,Jake's & Cooper's Wine Bar & Wine Shop,4365 Main St,40.025925,-75.2241818,3.5,dinner,$$$,American (New),Not Applicable
pj8Y-5vfbRitnnm2xJFH9w,Jamaican Jerk Hut,1436 South St,39.944275,-75.166787,2.5,dinner,$$,Caribbean,Not Applicable
VJEzpfLs_Jnzgqh5A_FVTg,Jasmine Rice - Rittenhouse,306 S 16th St,39.9470839462,-75.1682054067,3.5,dinner,$$,Thai,Not Applicable
BgQOm2TuoF1UmD4e7BOUjA,Jerry's Bar,129 W Laurel St,39.9651094,-75.1389069,3.5,"dinner, brunch",$$,American (New),American (Traditional)
sTPueJEwcRDj7ZJmG7okYA,Jim's South St,400 S St,39.941498,-75.149272,3.5,"lunch, dinner",$$,Italian,American (Traditional)
vuE1iseFrgNPumUEfHIZZQ,JJ Thai Cuisine,2028 Chestnut St,39.9521034288,-75.174737909,4.5,"lunch, dinner",$$,Asian Fusion,Thai
kkcQYuF3w5iHnHMf0EnRhQ,Joe's Steaks + Soda Shop,6030 Torresdale Ave,40.0185131,-75.0581372,4.5,"lunch, dinner",$,Not Applicable,Not Applicable
KkdLjGfVsfGESNkE0ktURg,Joe's Steaks + Soda Shop,1 W Girard Ave,39.969035,-75.134557,4.0,"latenight, lunch, dinner",$$,American (Traditional),Not Applicable
LM54ufrINJWoTN5imV8Etw,John's Roast Pork,14 E Snyder Ave,39.9210273851,-75.1450284438,4.5,lunch,$$,American,Not Applicable
6x9hcZ1CJ4S9avBgPGS7-Q,Johnny Brenda's,1201 Frankford Ave,39.9690922,-75.134266,4.0,"latenight, dinner",$$,American (New),Greek
QWqKTWQ2OiDgo3dzNkpung,Jong Ka Jib,6600 N 5th St,40.0520643,-75.1273939,4.5,"lunch, dinner",$$,Korean,Not Applicable
NUJrCPU51Cvip4ayZD1P5g,Jose Pistola's,263 S 15th St,39.9476637,-75.166164,3.5,"latenight, dinner",$$,Mexican,Tex-Mex
1vPSY4EA-fTRIZYz1Ruzow,K'Far Cafe,110 S 19th St,39.951593,-75.172171,4.5,"lunch, brunch, breakfast",$$,American (Traditional),Mediterranean
l8gAoQqqVfphPe9jmIJZ3g,K-POT Korean BBQ & Hot Pot,789 Franklin Mills Cir,40.0924685,-74.9629393,4.5,"lunch, dinner",$$$,Korean,Barbeque
9OhPfV0C3Q49l5tSre2MuQ,Kabobeesh,4201 Chestnut St,39.9564795,-75.2065288,3.5,"lunch, dinner",$$,Indian,Middle Eastern
Ldch7Nc5gaZrhcIRd7mcjw,Kabuki Sushi,45 N 13th St,39.9535852,-75.1609794,4.0,"lunch, dinner",$$,Japanese,Not Applicable
G2oWC7vWPTiTZt--0bUMzA,Kalaya,764 S 9th St,39.9399660086,-75.1577649178,4.5,dinner,$$$,Thai,Not Applicable
TRwPE6wsoAL6_fRaFdB4FA,Karma Restaurant & Bar,114 Chestnut St,39.948182,-75.1431548,4.0,"lunch, dinner",$$,Indian,Not Applicable
ILvJAuSP0sYWJKAQ-Goh4Q,Kensington Quarters,1310 Frankford Ave,39.9705028,-75.1346993,4.0,dinner,$$$,American (Traditional),American (New)
OHzX-ZD9qyoeoxR8Z0dlIA,Khyber Pass Pub,56 S 2nd St,39.9486423,-75.1441173,4.0,"latenight, dinner",$$,American (Traditional),Not Applicable
Lw1gzZZGI2GFQc6BI5zyJw,Kite & Key,1836 Callowhill St,39.960395,-75.169675,3.5,dinner,$$,American,Not Applicable
wocwfwSFrNfYJRyfYSi1Cw,Knead Bagels,725 Walnut St,39.9481128,-75.1536477,4.5,"lunch, brunch, breakfast",$,Not Applicable,Not Applicable
iZNR8-rqsBL2afDk4Zxe8A,Koch's Deli,4309 Locust St,39.953956271,-75.2097241761,4.0,lunch,$$,Kosher,Not Applicable
bdteJqgoj0OaALhj9RFtmw,Koreana,3801 Chestnut St,39.9556166133,-75.1989265346,3.5,"lunch, dinner",$$,Italian,Korean
0OsR9lO16jxa0xWUY57s9g,Koto Sushi,719 Sansom St,39.9487051045,-75.1531596925,4.5,"lunch, dinner",$$,Japanese,Not Applicable
LO5yBY9uoowtq7FsaKPJXA,Kraftwork,541 E Girard Ave,39.9714957,-75.1273589,4.0,dinner,$$,Not Applicable,Not Applicable
3yW8-dUi1wwCEf0URxUA7A,Kung Fu Tea,1006 Arch St,39.95349,-75.156748,3.5,,$,Taiwanese,Not Applicable
dYinIkKBspHV5hSaukklFg,L'Angolo Ristorante,1415 W Porter St,39.919628,-75.1713762,4.5,dinner,$$,Italian,Not Applicable
DZglT5FP5VNDQJU3PuRIHw,La Calaca Feliz,2321 Fairmount Ave,39.967534,-75.1760734,4.0,dinner,$$,Mexican,Not Applicable
htO_nlxkEsYHzDrtbiUxew,La Colombe Coffee,130 S 19th St,39.9506099,-75.172368,4.0,Unknown,$$$$,Not Applicable,Not Applicable
MlXH9dWYDFEBbwuGStlfZg,La Colombe Coffee,1335 Frankford Ave,39.9712343,-75.1342432,4.5,"lunch, brunch, breakfast",$$,Not Applicable,Not Applicable
DhZVpgeBKxoLd91MiwTxpg,La Fontana Della Citta,1701 Spruce St,39.9477642,-75.1696977,3.0,dinner,$$,Italian,Not Applicable
4_VDvhKpKSsj7jZYdocZYA,La Viola,"253 S 16th St, Apt 1",39.947783,-75.1677739,3.5,dinner,$$,Italian,Not Applicable
e3Y3hDpwHc9RmQlJtIgHuw,Lacroix Restaurant at The Rittenhouse,210 W Rittenhouse Sq,39.9499125,-75.1736448,4.5,,$$$$,Asian Fusion,Brazilian
HS5CfzQ_gOJHgqwtv9rvNQ,Ladder 15,1528 Sansom St,39.9502786,-75.1669645,3.0,,$$,American (New),Not Applicable
pW5DXTpKnw3y0fopipbJVg,Landmark Americana Tap & Grill - University City,3333 Market St,39.9559586568,-75.1906506718,3.0,dinner,$$,American (New),Not Applicable
j6usntbtSzFyuwx4n2mn1g,Las Bugambilias,15 S 3rd St,39.9499940204,-75.1454153298,4.0,dinner,$$$,Mexican,Not Applicable
I5KZm-NnxYeEQsmp6nK5_w,Las Cazuelas Restaurant BYOB,426 W Girard Ave,39.9698623,-75.1439919,4.0,dinner,$$,Mexican,Latin American
434A83c2ig6QxsZjrjclpQ,Las Margaritas,2538 Welsh Rd,40.0726066,-75.0341246,3.5,"lunch, dinner",$$,Mexican,Not Applicable
mBgaPljP3OYkl_vGKTyFNw,LaScala's Birra,1700 E Passyunk Ave,39.9286739096,-75.1650932751,4.0,dinner,$$,Italian,Not Applicable
fEqiXG_B-fn__w0aeF3nBQ,Laurel,1617 E Passyunk Ave,39.9294148,-75.1637155,4.5,dinner,$$$$,French,American (New)
sL6fC0P4C-gyL4E5gacUeQ,Lazaro's Pizzeria & Grill,1743 South St,39.944571,-75.171679,4.0,"lunch, dinner",$,Italian,Not Applicable
kj3Lyh9KooU8GcRBbMDQWQ,Le Pain Quotidien,1425 Walnut St,39.949621,-75.165252,3.5,"lunch, brunch, breakfast",$$,Belgian,French
Iyopb5uFIBT_HOgp8ipSfw,Le Viet Restaurant,1019 S 11th St,39.9376867,-75.1610435,4.0,"lunch, dinner",$$,Vietnamese,Not Applicable
0-7N3z_cb3Z1xMGDrbez6w,Le Virtu,1927 E Passyunk Ave,39.926032,-75.1678,4.0,dinner,$$$,Italian,Not Applicable
jXtaxB2b64nA4uy13i024A,Little Fish,746 S 6th St,39.939989,-75.152854,4.5,dinner,$$$,Seafood,Not Applicable
lKU_kljhbEQKIPaM1Zbqiw,Little Nonna's,1234 Locust St,39.947786438,-75.1618928091,4.0,dinner,$$,Italian,Not Applicable
s2JiYzE7i68cXIV6YEcVTw,Local 44,4333 Spruce St,39.952821,-75.210442,3.5,"latenight, dinner",$$,American (New),Not Applicable
csfMjRRfr-sku6L6bhEf_A,Local Tavern,"8000 Essington Ave, Gate F11, Terminal F",39.8951784,-75.2279726,2.5,"lunch, breakfast",$$,American (New),Italian
GAuweBrcC_wK3a0UhZjwfA,Loco Pez,2401 E Norris St,39.977142,-75.127202,4.0,"dinner, brunch",$$,Mexican,Not Applicable
D5V0Fawd6ODVgqCY8xngsw,Loews Philadelphia Hotel,1200 Market St,39.9517461,-75.1602286,3.5,Unknown,$$$,Seafood,Not Applicable
85e8Uyn8tIyEZCqBP80rqA,Lolita,106 S 13th St,39.9500808716,-75.162,4.0,dinner,$$,Mexican,Not Applicable
FD7gMovIYQmhdn23Iq91zQ,Lorenzo & Sons Pizza,305 S St,39.941596,-75.1478101,4.0,latenight,$,Italian,Not Applicable
Pl_9HzOa8uy_YOUxgonzGw,Los Gallos Mexican Taqueria,951 Wolf St,39.9211192555,-75.1632766118,4.5,"lunch, dinner",$$,Mexican,Not Applicable
pgri9CUZXGy9hi6UMMQR6A,Louie Louie,3611 Walnut St,39.9532791038,-75.1955875611,4.0,"dessert, lunch, dinner, brunch",$$$,American (New),Modern European
GWqPmrWu0kXB_-gB1H-j6A,Love & Honey Fried Chicken,1100 N Front St,39.9674815,-75.136957,4.5,"dessert, lunch, dinner",$$,American (Traditional),Soul Food
XJnTY0wG45x9GBrgfNpkCw,Lucha Cartel,207 Chestnut St,39.9484906,-75.1444675,3.5,dinner,$$,Mexican,Not Applicable
ci-kujWfHzsg5zCcqYZLKA,Lucky Strike - Philadelphia,1336 Chestnut St,39.950671,-75.1633942,3.0,"latenight, dinner",$$,American (Traditional),Not Applicable
un0xxX785wfQfprryh0TjQ,Lucky's Last Chance,4421 Main St,40.026303576,-75.2255360669,4.5,dinner,$$,Not Applicable,Not Applicable
30cpm1uq6xcQCmN6JTrB8w,Luke's Lobster Rittenhouse,130 S 17th St,39.9505067,-75.1691375,4.5,lunch,$$,Seafood,Not Applicable
7NwFNLC0SwX1SwQYlfF5yw,Luna Café,317 Market St,39.9504011,-75.1463684,4.0,"lunch, brunch, breakfast",$$,American (Traditional),Not Applicable
XQWZQjC73fCTRGWnD18-Eg,Mac Mart,104 South 18th St,39.9514489,-75.1705213,4.0,lunch,$$,American,Not Applicable
SIoCIxjn4jLt2O-4DajWJw,Mac's Tavern,226 Market St,39.949794,-75.144739,3.5,latenight,$$,American (New),Not Applicable
2WGnykxiM-Mp-qIm2u7iAw,Maggiano's Little Italy,1201 Filbert St,39.9531992,-75.1602278,3.5,dinner,$$,Italian,Not Applicable
irXywqvfXj9maLLOBQMYvg,Manakeesh Cafe Bakery & Grill,4420 Walnut St,39.9549844,-75.2115232,4.0,"dessert, lunch, dinner, brunch",$$,Mediterranean,Lebanese
ZGH8MzJa7Q7iIpmtzBAJAQ,Manayunk Brewery,4120 Main St,40.022471,-75.2188,3.5,dinner,$$,American,Sushi
Tkx1AiQarmw0zc50GibtTA,Marathon On the Square,1839 Spruce St,39.9481101,-75.1726188,3.5,lunch,$$,American (New),Not Applicable
-ATiAtTikuGuqvaW2O6tNA,Marathon,121 S 16th St,39.9504833638,-75.1673305865,3.5,"lunch, brunch",$$,American (New),Not Applicable
pVHbXwsqLxNzAx9rdwy2EA,Marmont Steakhouse & Bar,222 Market St,39.9497397,-75.1445806,3.5,dinner,$$$,American,Not Applicable
EI2_OgANt1Mb_83cNnpPwg,Marra's,1734 E Passyunk Ave,39.9279881,-75.1658701,3.0,dinner,$$,Italian,Not Applicable
F8yozE3NWnImNApHO347gQ,Marrakesh,517 S Leithgow St,39.9420436,-75.1495102,4.5,dinner,$$$,Mediterranean,Moroccan
XsfuqDqw9eOaQ_2FCv5MuQ,Masala Kitchen Kati Rolls and Platters,1115 Walnut St,39.9491761,-75.159714,4.0,"latenight, lunch, dinner",$,Indian,Not Applicable
jkGQQ4_LgJx3hwPtCFkzbQ,Max Brenner - Philadelphia,1500 Walnut St,39.9491000076,-75.1661748827,3.5,dessert,$$,American,Not Applicable
4wq9bzoCe3Mh0cPbYH1eDg,Max's Steaks,3653 Germantown Ave,40.009045,-75.150471,4.0,"latenight, lunch, dinner",$$,Not Applicable,Not Applicable
S0dQ8Vks0IR-PZPLoBHKRA,McCormick & Schmick's Seafood & Steaks,1 S Broad St,39.951353,-75.1634754,2.5,dinner,$$,American (Traditional),Seafood
gLpp7kjR9Zg6ypG2lRjAYg,McCrossen's Tavern,529 N 20th St,39.9630919,-75.1709203,4.0,brunch,$$,American (Traditional),Not Applicable
cOXc8c85Ms6dMEAJazLXHQ,McGillin's Olde Ale House,1310 Drury St,39.950168,-75.162607,4.0,Unknown,$$,American (Traditional),Irish
Mt6XTQfwk2DUD3AK29YIBg,Melograno,2012 Sansom St,39.9512428,-75.1741148,3.5,dinner,$$$,Italian,Not Applicable
_wcOVX6PPvhXGMpUa2Ij8A,Melrose Diner,1501 Snyder Ave,39.925004,-75.172084,3.0,"latenight, lunch, breakfast",$,Not Applicable,Not Applicable
u7cZUEGK6iJP2gvI22xY2A,Memphis Taproom,2331 E Cumberland St,39.9803676,-75.1230344,4.0,Unknown,$$,American (New),Not Applicable
bjPUhanWoinHi2kywvVzBA,Mercato BYOB,1216 Spruce St,39.9464996,-75.1617652,4.0,dinner,$$$,Italian,Mediterranean
OAWa1WML2V1ZLJGD6V3nBQ,Middle Child,248 S 11th St,39.9471698,-75.1594404,4.5,"lunch, brunch, breakfast",$$,Breakfast & Brunch,Not Applicable
QWZuvqTYTMncVdhulUU73A,Miel Patisserie,204 S 17th St,39.9497118,-75.169361,3.5,Unknown,$$,Not Applicable,Not Applicable
lWedWkinrM5j13pyimbpbA,Miles Table,1620 South St,39.944043,-75.1695127,4.5,"lunch, brunch, breakfast",$$,American (Traditional),Not Applicable
V_jy9Aemc3kjznqhbsu_Dg,MilkBoy,1100 Chestnut St,39.950125,-75.1587931,3.5,Unknown,$$,American (New),Not Applicable
d28lZlSps97FHhXZazJ8zA,Misconduct Tavern,1511 Locust St,39.9486272,-75.1666356,3.5,"latenight, lunch, dinner",$$$,American (Traditional),Not Applicable
G9LZoNlCfRH941q87_JLIg,Mission Taqueria,"1516 Sansom St, Fl 2",39.9502217062,-75.1665529981,4.0,"lunch, dinner",$$,Mexican,Not Applicable
GoYSJ-YY-YwbxdgasHuq-Q,Mixto,1141 Pine St,39.945195,-75.161082,4.0,dinner,$$,Latin American,Italian
D2OcZHMkznF5bbelwZ7TPw,Molly Malloy's,1136 Arch St,39.9531200778,-75.1589835418,4.0,lunch,$$,American,Not Applicable
OdIBX09glfXNVSyd0RnIeg,Monk's Cafe,264 S 16th St,39.947701,-75.1682869,4.0,dinner,$$,Belgian,Not Applicable
U30ggGzFpXvc2NZYwOW3qg,Mood Cafe,4618 Baltimore Ave,39.9486639126,-75.2158315415,4.5,"lunch, dinner",$,Pakistani,Indian
gOrJeoLDOiW7muWuoE-sMg,Morgan's Pier,221 N Columbus Blvd,39.9549030181,-75.1389125268,3.0,latenight,$$,American (New),Seafood
mf0OyZ6DX2iKUFIV9TqFRQ,Moriarty's Restaurant and Irish Pub,1116 Walnut St,39.9485658,-75.1598508,3.5,"latenight, lunch, dinner",$$,American (Traditional),Irish
6_T2xzR74JqGCTPefAD8Tw,Morimoto,723 Chestnut St,39.9496652299,-75.1532727008,4.5,dinner,$$$$,Asian Fusion,Not Applicable
AmI3LIUNwsi4023hOVGu3w,Moshulu,401 S Columbus Blvd,39.942335482,-75.1413081,3.5,dinner,$$$,American,Seafood
AlxnbBd2JNkozNvI0OvRLQ,Murph's Bar,202 E Girard Ave,39.9689397,-75.1334333,4.0,"dessert, latenight, dinner",$$,Italian,Not Applicable
8kUh6TROemLfbVR_ewVVLg,Nam Phuong,1100 Washington Ave,39.9364886,-75.1622139,4.0,"lunch, dinner",$$,Vietnamese,Not Applicable
ntiIq1FNqduOyyowMFGh5A,Nan Zhou Hand Drawn Noodle House,1022 Race St,39.9554005671,-75.1569010986,4.0,"lunch, dinner",$$,Chinese,Not Applicable
wB1Tin0OW1JRpaKM-E3ZYA,National Mechanics,22 S 3rd St,39.9495443,-75.1459872,4.0,dinner,$$,American (New),American (Traditional)
_PvljXZHQlUmL8SuOXF8ug,New Deck Tavern,3408 Sansom St,39.9535171,-75.1926364399,3.5,"latenight, dinner",$$,American (Traditional),Irish
YN4Kk751tmdvoarGo8z7_A,New Delhi Indian Restaurant,4004 Chestnut St,39.9553921,-75.2026195,4.0,"lunch, dinner",$$,Indian,Pakistani
UdcLHHBRIxtelgbKBnhitA,Nifty Fifty's,2491 Grant Ave,40.0794684018,-75.0253902955,3.5,"dessert, lunch, dinner, breakfast",$$,Burgers,Not Applicable
qY-BUQY-SFBaSrFHowF3nA,Nine Ting,926 Race St,39.9550836837,-75.1552917273,4.0,"latenight, lunch, dinner",$$$,Asian Fusion,Not Applicable
pm1bStJuol5XmxE_atZhCQ,Nom Nom Ramen,20 S 18th St,39.9524929,-75.1702943,4.0,"lunch, dinner",$$,Japanese,Ramen
VP8HMhVt-pKmqGNmDW4-TQ,Nom Wah Philadelphia,218 N 13th St,39.956593,-75.160772,4.0,lunch,$$,Chinese,Cantonese
M_EpyAH1CZZVlhxfYBLOqg,Nomad Pizza Company,611 S 7th St,39.9418368,-75.153837,4.5,dinner,$$,Italian,Pizza
e4MoozYGqe_rb4_ZC1rYMQ,Nook Bakery & Coffee Bar,15 S 20th St,39.952725,-75.1729016,4.5,breakfast,$,Italian,Not Applicable
tcvNBC65Gsa4cH1_gyucpQ,Noord,1046 Tasker St,39.92966,-75.163003,4.5,dinner,$$$,American (New),Scandinavian
R0JUjyjGEzUlY3auVhY_tg,North Bowl,909 N 2nd St,39.9644125073,-75.1403277254,4.0,"latenight, dinner",$$,American (Traditional),Vegan
W06QBC9vkxA5CVBNVrOMRA,North Third,801 N 3rd St,39.96350593,-75.1427820977,4.0,dinner,$$,American (New),Not Applicable
838bEDzZSPveDkAGrhVWYQ,Ocean Harbor,1023 Race St,39.9557218,-75.1567726,3.0,"lunch, brunch",$$,Chinese,Seafood
woTZpX92uByUgliPrh39Mg,Ocean Prime,124 S 15th St,39.9501744,-75.1659335862,4.0,dinner,$$$$,American (New),Seafood
gwxNttwUgmOn3vsHYe0pDQ,OCF Coffee House,2100 Fairmount Ave,39.967128,-75.172378,4.0,"lunch, brunch, breakfast",$$,Not Applicable,Not Applicable
rQW9iupvhk6ScPn2VPNLVQ,Octopus Falafel Truck,20th & Ludlow St,39.952932,-75.173293,4.5,lunch,$,Mediterranean,Middle Eastern
7pAgxBMUjrVPH7xh3fn-gw,Oh Brother Philly,206 Market St,39.9496989,-75.1441608,4.5,"dessert, latenight, lunch, dinner",$$,Not Applicable,Not Applicable
9w6o_eyKCSNKgMtAuv6KWg,One Shot Coffee,217 W George St,39.9677290083,-75.1406717064,4.0,"brunch, breakfast",$$,American (Traditional),Not Applicable
NYj8uB9-u0SmRMNDNktb1g,Oscar's Tavern,1524 Sansom St,39.9502531,-75.1668064,4.0,Unknown,$$,Not Applicable,Not Applicable
05ev984NYfimRN0UiFrxaA,Osteria,640 N Broad St,39.965015,-75.161076,4.0,dinner,$$$,Italian,Not Applicable
poviu-6n3iaRE4gdQz6OYw,Oyster House,1516 Sansom St,39.9502216,-75.166553,4.0,dinner,$$$,Seafood,Not Applicable
phsLOuBeiYI43hglvWK96Q,P S & Co,1706 Locust St,39.9487961,-75.1697449,4.0,"lunch, brunch, breakfast",$$,Vegetarian,Vegan
Sk1WdGuaCNQlQZ_u_JE0Ew,P'unk Burger,1823 E Passyunk Ave,39.9271243,-75.1663375,3.5,"lunch, dinner",$$,Burgers,Not Applicable
0bvtIbpsqBJZpRKSPwIfNw,Panorama,14 N Front St,39.950201,-75.142285,4.0,dinner,$$$,Italian,Not Applicable
j-qtdD55OLfSqfsWuQTDJg,Parc,227 S 18th St,39.9491724,-75.1707273,4.0,"lunch, dinner, brunch",$$$,French,American (New)
PP3BBaVxZLcJU54uP_wL6Q,Pat's King of Steaks,1237 E Passyunk Ave,39.9332010583,-75.159265814,3.0,"latenight, lunch, dinner",$$,Italian,American (Traditional)
lS42krxXMm-HIk7dntRsKQ,Pattaya,4040 Locust St,39.9529055,-75.204785,3.5,"lunch, dinner",$$,Asian Fusion,Thai
QtST1igZAi0q9LxJr6srIQ,Pearl's Oyster Bar,51 N 12th St,39.953298,-75.159071,4.0,"lunch, brunch, breakfast",$$,American (New),Seafood
eaDZlSuVS0EY67Ke6pRP6Q,Penang,117 N 10th St,39.954044,-75.15598,3.5,dinner,$$,Asian Fusion,Malaysian
nF5QByCz21MY0KLtSoB5KA,Penrose Diner,2016 Penrose Ave,39.9122173,-75.1827641,4.0,"dessert, latenight, lunch, dinner, brunch, breakfast",$$,Comfort Food,Not Applicable
lZX5_8qspEXtMJGFQ0-Mow,Philadelphia Marriott Downtown,"1201 Market Street, (guest entrance at 1200 Filbert Street).",39.952534,-75.160578,3.0,Unknown,$$,Not Applicable,Not Applicable
Qw7tz-UkPrpXaVidWuab4Q,Philadelphia Museum of Art,2600 Benjamin Franklin Pkwy,39.965573,-75.180969,4.5,Unknown,,American,Not Applicable
3M69f6Cg2CAgpEcIgoKS5A,Philip's Steaks,2234 W Passyunk Ave,39.9225830143,-75.1848140609,3.5,"latenight, lunch, dinner",$,Not Applicable,Not Applicable
PJjkH_VZeQwxEJvlQ-v7wA,Pho 75,1122 Washington Ave,39.9372212861,-75.1628434626,4.5,"lunch, dinner",$$,Vietnamese,Asian Fusion
688sqo63oc2y535vI2UbhQ,Pho Cali Vietnamese Restaurant,1000 Arch St,39.9533132,-75.1565235,3.5,"lunch, dinner",$,Vietnamese,Not Applicable
eY8exh1aLVVhW6z_M0u_Eg,Pho Ha Saigon,575 Adams Ave,40.0359369248,-75.107954232,3.5,"lunch, dinner",$,Vietnamese,Not Applicable
2fJ-WxJlUN6azp3bzrJ0zA,Pho Ha,600 Washington Ave,39.9344521341,-75.1544015359,4.0,"lunch, dinner",$$,Vietnamese,Chinese
IjMs1n7UelI7ev_5IDl5kA,Pho Saigon,"1100 S Christopher Columbus Blvd, Unit 22",39.932705,-75.14438,4.0,"lunch, dinner",$$,Vietnamese,Not Applicable
ueAkLzWFFTzQkq3jzyBlnA,Pho Xe Lua Viet Thai Restaurant,907 Race St,39.9553922,-75.1546977,4.0,"lunch, dinner",$$,Vietnamese,Thai
fN12ywQpLXQ93bpwe1N_Ww,Pietro's Coal Oven Pizzeria,1714 Walnut St,39.9497512,-75.1699969,3.5,dinner,$$,Italian,Not Applicable
zfn7V7FVH5_J5A9dInfbnA,Pinefish,1138 Pine St,39.94499,-75.161245,3.5,dinner,$$,Seafood,Not Applicable
g2zwbLIqxtN9nGGuL43trg,Pizza Brain,2313 Frankford Ave,39.9806746,-75.1280968,4.0,"lunch, dinner",$$,Pizza,Not Applicable
uJZgom8HpK74xz8IojpT0A,Pizzeria Beddia,1313 North Lee St,39.970799,-75.134989433,4.0,dinner,$$,Italian,Not Applicable
vF_QwGltBpVesMMGclzB9Q,Pizzeria Stella,420 S 2nd St,39.9424247094,-75.1456823945,4.0,"lunch, dinner",$$,Italian,Not Applicable
0-JRAY0LpBazDuA9761U5w,Pizzeria Vetri,1615 Chancellor St,39.94941083,-75.1686977423,4.0,"lunch, dinner",$$,Italian,Not Applicable
u7_3L1NBWgxhBM_B-cmmnA,Pizzeria Vetri,1939 Callowhill St,39.960888,-75.171213,4.0,"lunch, dinner",$$,Italian,Not Applicable
3gVSrS4kffGGZT8oXHsIcw,Pod,3636 Sansom St,39.9539707735,-75.1960369886,3.5,dinner,$$,Asian Fusion,Not Applicable
3lBooCffgkW7tVSG5kILBA,Porcini,2048 Sansom St,39.951348,-75.1751139,3.5,dinner,$$,Italian,Not Applicable
sb8-TzsXOV7IsErbpHZo3g,Positano Coast by Aldo Lamberti,"212 Walnut St, Fl 2",39.9466579,-75.144724,3.5,dinner,$$,Italian,Seafood
4_W5pstoN1166TGjjPOrMg,Prohibition Taproom,501 N 13th St,39.9613018,-75.1593118,4.0,"latenight, dinner",$$,American (Traditional),Not Applicable
7lwe7n-Yc-V9E_HfLAeylg,Pub & Kitchen,1946 Lombard St,39.9456566,-75.1747733,3.5,dinner,$$$,American (New),Not Applicable
bIGFd99r3iUNB0xshlZ5Sw,Pumpkin,1713 South St,39.9444366,-75.1708063,4.0,dinner,$$$,American (New),Not Applicable
hsslqZAVtu093rkguSpltA,Punch Line Philly,33 E Laurel St,39.965141,-75.135429,3.5,"latenight, dinner",$$,American (New),Not Applicable
QGYzYUMsQe6k7__LD91E5w,QT Vietnamese Sandwich,48 N 10th St,39.953229,-75.156582,4.5,lunch,$,Vietnamese,Not Applicable
S9IFCU4FKCqEriV1Rr2ZcA,Race Street Cafe,208 Race St,39.9537127,-75.1434447561,4.0,dinner,$$,American (New),American (Traditional)
4qG7aFq9-45830OfYt7gCA,Radicchio Cafe,402 Wood St,39.956611,-75.1463377,4.0,dinner,$$,Italian,Not Applicable
j99PtxlKTW_u5alE4jiqHQ,Ralphs Italian Restaurant,760 S 9th St,39.9400584,-75.1578655,3.5,dinner,$$,Italian,Not Applicable
ZMejgg0By-DI2wyQWezBbQ,Ramen Bar,3400 Lancaster Ave,39.9572977379,-75.1920437233,3.5,"lunch, dinner",$$,Japanese,Not Applicable
o7YE1WaFeQg_piECb9cgjQ,Ratchada Thai & Laos Cuisine,1117 S 11th St,39.936534,-75.16139,4.0,"lunch, dinner",$$,Asian Fusion,Not Applicable
ytynqOUb3hjKeJfRj5Tshw,Reading Terminal Market,51 N 12th St,39.9533414645,-75.1588545174,4.5,"lunch, brunch, breakfast",$$,Chinese,Not Applicable
r3X75SK37buS94mDls3q_Q,Real Food Eatery,207 S 16th St,39.9493695,-75.1675666,4.5,"lunch, dinner",$$,American (Traditional),Not Applicable
DsKzHnkLKnxZTVsFpts4oA,Red Owl Tavern,433 Chestnut St,39.9492805,-75.1489288,3.5,brunch,$$,American (New),Not Applicable
32It9NN_lVismU9tcuLB0A,Relish,7152 Ogontz Ave,40.0634207,-75.1531244,3.5,"dinner, brunch",$$,Southern,Seafood
ldr7iDtxFXX-q7tJuXqlGQ,Revolution House,200 Market St,39.9497082,-75.1439349,3.5,dinner,$$,American (New),Italian
w55VlTgAoRXPnqFte3j9ew,Revolution Taco,2015 Walnut St,39.9507589,-75.1743401,4.0,"lunch, dinner",$$,Mexican,Not Applicable
oGMwCmV1EQZgCdylAbK9ow,Rex at the Royal,1524 S St,39.9437809,-75.1681729,4.5,dinner,$$$,American (New),Southern
S1FwTmCAwv5ulu5gToWi_w,RIM Cafe,1172 S 9th St,39.9343869,-75.1589957,4.5,Unknown,$$,Not Applicable,Not Applicable
ozOneB4jXOD6hv5WBGj4KQ,Ristorante Pesto,1915 S Broad St,39.9263553,-75.1689367,4.5,dinner,$$,Italian,Not Applicable
YtSqYv1Q_pOltsVPSx54SA,Rittenhouse Grill,1701 Locust St,39.9489487,-75.1695317,3.5,dinner,$$$,Steakhouses,Seafood
IP_E4SHLClorhNg4o5bw9Q,Rosy's Taco Bar,2220 Walnut St,39.9508956186,-75.178367123,4.0,dinner,$$,Mexican,Not Applicable
4tU9hlfzrCpcGWTIm-OKVA,Rouge,205 S 18th St,39.949638,-75.170671,3.5,dinner,$$,American (Traditional),Asian Fusion
IS3h8_4gL_IbmpVTKDB3LA,Royal Sushi & Izakaya,780-782 S 2nd St,39.9380805,-75.1465231,4.5,"latenight, dinner",$$,Japanese,Not Applicable
YaLKDgS_zIYIm6jkXWCxgA,Rustica,903 N 2nd St,39.9642199,-75.1404574,4.0,"lunch, dinner",$,Italian,Not Applicable
zpKTPWoW56wF6d9qNnxM3Q,Rybread,1711 Fairmount Ave,39.9673313,-75.1658216,4.0,"lunch, breakfast",$,Not Applicable,Not Applicable
6_LnAQQ0-mml8YgpfRjGuA,Saad's Halal Restaurant,4500 Walnut St,39.9549627,-75.2118511,4.5,"lunch, dinner",$,Middle Eastern,Indian
6ewV-e7-39oqYUq3yZuIyw,Sabrina's Café,227 N 34th St,39.9598792,-75.1906815,4.0,"lunch, brunch, breakfast",$$,American (New),Not Applicable
iUZEGx29miZObLd6_lt7Vg,Sabrina's Café,1804 Callowhill St,39.9604147854,-75.1686044902,4.0,"brunch, breakfast",$$,American (New),Vegetarian
T8NWs6flR26edfhhwJNhNA,Sahara Grill,1334 Walnut St,39.9491798,-75.1635651,4.0,"lunch, dinner",$$,Mediterranean,Middle Eastern
-DGsnMlRrR_tv8avrpQLQw,Sam's Morning Glory Diner,735 S 10th St,39.9408607,-75.1589045,4.0,"brunch, breakfast",$$,Not Applicable,Not Applicable
kZ1q0K13tFYG_ZJrVvsJHA,Sampan,124 S 13th St,39.9495313759,-75.1621570259,4.0,dinner,$$$,Asian Fusion,Not Applicable
mUdjeVjdsiOQMBK41x0Bow,Sancho Pistola's,19 W Girard Ave,39.9688395,-75.1351413,4.0,"latenight, dinner, brunch",$$,Mexican,Not Applicable
MzFhaFNbE03zF84BPkN7yQ,Sang Kee Noodle House,3549 Chestnut St,39.9548759225,-75.1939325212,3.0,"lunch, dinner",$$,Chinese,Not Applicable
_V6hl1oGkTV2KbGeax_HPA,Sang Kee Peking Duck House,238 N 9th St,39.9563986,-75.1542873,4.0,"lunch, dinner",$$,Chinese,Cantonese
I1H5s9cVCGh1nH-4bhsSDA,Santucci's Original Square Pizza,901 S 10th St,39.9390394,-75.159227,3.5,"lunch, dinner",$$,Italian,Not Applicable
vrQCClTDrPSbIHO-ub8qFg,Sardi's Pollo A La Brasa,4510 City Ave,40.0030483,-75.2219283,4.0,"lunch, dinner",$$,Latin American,Peruvian
L0zMk5SXnqR0JLEe0XY20g,Sassafras Bar,48 S 2nd St,39.948832,-75.144063,4.5,"latenight, dinner",$$,American (New),Not Applicable
itv5mVA2lkp_ivhSdmKGgw,Seorabol Korean Restaurant,5734 Old 2nd St,40.0385555068,-75.1242795983,4.0,"lunch, dinner",$$,Korean,Japanese
BxfvdHqETU8jWYUjx5OL2A,Shake Shack,2000 Sansom St,39.9512256328,-75.1737892628,3.5,"lunch, dinner",$$,American (Traditional),Not Applicable
POuaebsAeCyNx-8qZ3O7XQ,Shang Hai 1,123 N 10th St,39.9541205693,-75.1560343422,4.0,"lunch, dinner",$$,Chinese,Taiwanese
dG-gZOWzn8iO1Rvv_fbXxA,Silk City Diner & Lounge,435 Spring Garden St,39.9613271,-75.1460328,4.0,brunch,$$,American (New),Not Applicable
QKVX66UREuD6aQ0x_F17wA,Slice,1180 S 10th St,39.934678,-75.160539,3.5,"lunch, dinner",$$,Italian,Not Applicable
DAbpxhhHOxInDNLdvWrTTQ,Smile Cafe,105 S 22nd St,39.9521517,-75.1768973,4.0,"lunch, dinner",$$,Thai,Noodles
gCcJTKC40CL0XtYYGfcXDw,Smiley's Cafe,4251 Main St,40.024774,-75.2214354,4.5,"lunch, dinner",$,Mediterranean,Greek
SOsjW1JARmtHUFtpFlp8rw,Snap Custom Pizza - Center City,1504 Sansom St,39.9502972,-75.1661556,4.0,"lunch, dinner",$,Not Applicable,Not Applicable
Q0pFg3ri7kt9xIxxXh7-RQ,SOMO Manayunk,4311 Main St,40.0250874,-75.2221876,3.5,"dinner, brunch",$$$,American (New),Not Applicable
-mIlmp5l4hKlp1tvHRdvTg,Sonny's Famous Steaks,228 Market St,39.9499178538,-75.1447920753,4.0,"lunch, dinner",$$,American (Traditional),Not Applicable
dpiaAGgEMm9Lf8dbx0yEJQ,Soup Kitchen Cafe,2146 E Susquehanna Ave,39.9798199,-75.129822,4.0,"lunch, brunch, breakfast",$$,American (New),Not Applicable
YqmClmk7oLcDzPWKHzgA-Q,South Philadelphia Tap Room,"1509 Mifflin St, Newbold",39.927216,-75.171477,4.0,dinner,$$,Not Applicable,Not Applicable
Jg9kkOl4sx2AXJVohbpSiw,South Philly Barbacoa,1140 S 9th St,39.935354,-75.158801,4.5,"lunch, breakfast",$$,Mexican,Not Applicable
68ThEdiK0eWCEgGEmV9Tng,Southgate,1801 Lombard St,39.9455687,-75.1717901,4.0,dinner,$$,American (Traditional),Korean
KscVqYYG7ziAroZhfNb0Ng,South,600 N Broad St,39.964395,-75.161227,4.0,"dessert, dinner",$$$,Southern,Not Applicable
MM_v-KIUJiXLCxnkIqPKWA,Soy Cafe,630 N 2nd St,39.9616969288,-75.1412892166,4.5,lunch,$,Not Applicable,Not Applicable
arKiXax3ScSM_z3O-0CIyw,Spasso Italian Grill,34 S Front St,39.948706,-75.142687,4.0,dinner,$$,Italian,American (Traditional)
8va8lpVU8aiQtnSbyjVScA,Spataro's Cheesesteaks,51 N 12th St,39.9531593,-75.1590984,2.5,lunch,$$,Not Applicable,Not Applicable
-1B9pP_CrRBJYPICE5WbRA,Spice 28,1228 Chestnut St,39.950352,-75.1615829,4.0,"lunch, dinner",$$,Asian Fusion,American (New)
oyA87-Q_vqnmxVOn_auJQQ,Spice C,131 N 10th St,39.9543751,-75.155929,4.0,"lunch, dinner",$$,Chinese,Not Applicable
0mijbNf-7wiKJ9xto1pAyg,Spice Finch,220 S 17th St,39.9493776356,-75.169540979,4.5,"dinner, brunch",$$,Mediterranean,Not Applicable
Gw7UW0E2BguzL9suQnwDeg,SPOT Gourmet Burgers,2821 W Girard Ave,39.9747101233,-75.1825701445,4.5,"lunch, dinner",$$,Burgers,Not Applicable
XU3Fe8I8dD3FaOmzAQXLnQ,Spread Bagelry,262 S 20th St,39.9485847,-75.1744427,3.5,"brunch, breakfast",$$,Not Applicable,Not Applicable
oBhJuukGRqPVvYBfTkhuZA,Square 1682,121 S 17th St,39.9508011,-75.1686108,3.5,dinner,$$,American (New),Not Applicable
WMkiheTT-8kRslImVLWMVw,Standard Tap,901 N 2nd St,39.96414,-75.1405144,4.0,dinner,$$,American (Traditional),Not Applicable
HngRiL6Z3DFTDnNsXZ0TQw,Stateside,1536 E Passyunk Ave,39.930249,-75.163265,3.5,dinner,$$,American (New),Not Applicable
gYYMQeg4X8FUcCxXI4c2Tw,Steve's Prince of Steaks,7200 Bustleton Ave,40.0456111,-75.0609207,4.0,"latenight, lunch, dinner",$$,American (Traditional),Not Applicable
B6Cn6maWQ6sLhLwYGLhSlg,Stockyard Sandwich,1541 Spring Garden St,39.9630709056,-75.164270103,4.5,"lunch, breakfast",$$,Not Applicable,Not Applicable
eLAd1Jw-g1NKymBx1XPDoA,Stogie Joe's Tavern,1801 E Passyunk Ave,39.927559,-75.166057,3.5,Unknown,$$,American (New),Italian
3FKIev7ZB_KE6XHL9sUJCg,Strangelove's,216 S 11th St,39.948089,-75.1592111423,4.0,,$$,American (Traditional),Not Applicable
PVVFos1LDfD7iETY0w4vaA,Su Xing House,1508 Sansom St,39.950215,-75.166346,4.0,"lunch, dinner",$$,Chinese,Not Applicable
fIlR_iCy3m10_UYt6lJjHQ,Sumo Sushi,401 S 13th St,39.945196,-75.162803,3.5,"lunch, dinner",$$,Sushi,Not Applicable
vUrTGX_7HxqeoQ_6QCVz6g,Suraya,1528 Frankford Ave,39.9736865005,-75.1339557767,4.5,"dessert, lunch, dinner, brunch, breakfast",$$$,Middle Eastern,Lebanese
KyDcAU41QDQpYAFyK6Q6hg,Sweet Box Cupcakes,339 S 13th St,39.9455654,-75.1627808,4.5,Unknown,$$,Not Applicable,Not Applicable
_UOg5_pk9IhKee91eWrT4A,Sweet Lucy's Smokehouse,7500 State Rd,40.029103,-75.0272619,4.5,"lunch, dinner",$$,Barbeque,Not Applicable
t6g6Lj8WzjIXXucCl9jdTQ,T-Swirl Crêpe,150 N 10th St,39.9550806,-75.1561748,4.0,"dessert, lunch",$,Japanese,Not Applicable
gQCKrqkalAc--4cuW_C_Ow,Tacconelli's Pizzeria,2604 E Somerset St,39.980483,-75.11303,4.0,dinner,$$,Not Applicable,Not Applicable
1N7RWvz2c_e640PsvnSc0A,Taco Riendo,1301 N 5th St,39.9714977,-75.1444936,4.0,"lunch, dinner",$,Mexican,Not Applicable
AKrFJ7vuBbLPfE9u2HVEkQ,Tai Lake Restaurant,134 N 10th St,39.9546629,-75.156162,3.5,"latenight, dinner",$$,Chinese,Not Applicable
EreYgrQPuR7Sk_FKeZZg9g,Talula's Daily,208 W Washington Square,39.9472825,-75.1536278,4.5,"lunch, brunch, breakfast",$$,American (Traditional),Not Applicable
i_FWONQD1ZBqrNE2b-M5Ug,Talula's Garden,210 W Washington Sq,39.9473272218,-75.1535421779,4.5,dinner,$$$,American (New),Not Applicable
HcddEbhaQ3wgyEFoEZSeGQ,Tamarind,117 S St,39.9412384,-75.14467,4.0,dinner,$$,Thai,Not Applicable
f2RHDdXezLHILvM7v1xOVA,Taqueria La Veracruzana,908 Washington Ave,39.93613,-75.15913,4.0,"lunch, dinner",$,Mexican,Not Applicable
REiAM73RkOxFqCVlEFiRWA,Tattooed Mom,530 South St,39.9416802,-75.1519159,4.0,latenight,$$,American (New),Vegan
CiTYWOKcXTZYztsT43wb5g,Tela's Market & Kitchen,1833 Fairmount Ave,39.967417,-75.168217,4.0,"lunch, brunch, breakfast",$$,American (New),Not Applicable
Co3Ogqy6y2JgZdG0wBlrUQ,Ten Stone Bar & Restaurant,2063 South St,39.9450458,-75.1769728,3.0,dinner,$$,Asian Fusion,American (New)
kxKai8GE5oDMPevV7oxvbA,Tequilas Restaurant,1602 Locust St,39.9485127,-75.1680322,4.0,dinner,$$$,Mexican,Not Applicable
Sv1MEZP-mMfp8SmE0hwYEA,Terakawa Ramen,204 N 9th St,39.955402,-75.154484,4.5,"lunch, dinner",$$,Japanese,Ramen
HTqXI5S2XcSlh_ylx9sE6g,Termini Bros Bakery,12th St & Filbert St,39.9530477103,-75.1590135265,4.0,Unknown,$$,Not Applicable,Not Applicable
hX_8ZUmIqWFWzjdiPrf23w,Termini Bros Bakery,1523 S 8th St,39.9297933,-75.1580422,4.5,Unknown,$$,Not Applicable,Not Applicable
nYeTVhBwwF5aCGYo9-aLGw,TGI Fridays,4000 City Ave,40.007927,-75.211183,2.0,"dessert, lunch, dinner",$$,American (Traditional),Not Applicable
vpfy4_N1PozCkvk2WDE_RQ,The Abbaye,637 N 3rd St,39.9622476511,-75.1430036973,4.0,"dinner, brunch",$$,American (Traditional),Not Applicable
i6DlLLxZ2iwQRxhUDx3TTg,The Adobe Cafe,4550 Mitchell St,40.0342316,-75.2191448,3.5,dinner,$$,Mexican,Not Applicable
zujdPV3HT-Y-CKE1GgkMHQ,The Bakeshop on 20th,269 S 20th St,39.9484101,-75.174133,4.5,"dessert, lunch, brunch, breakfast",$,Not Applicable,Not Applicable
sdWuLh-auc0nC2Jy6_26AQ,The Black Sheep Pub & Restaurant,247 S 17th St,39.9484223,-75.1692901,3.5,latenight,$$,American (New),Not Applicable
9mA9qYqiv4c0T9ASid3PIQ,The Capital Grille,1338-46 Chestnut St,39.9506134672,-75.1636080327,4.0,dinner,$$$,American (Traditional),Italian
V8we7-uCa-SouadZmZ9Ieg,The Cheesecake Factory,1430 Walnut St,39.9491039,-75.1658813,3.0,"dessert, lunch, dinner, brunch",$$,American,Seafood
WxB8498ejPtHE7wFa89_fA,The Continental Mid-town,1801 Chestnut St,39.9519308,-75.1704529,3.5,dinner,$$,American (Traditional),Not Applicable
luv3Y2AjoOhxYRY_u5tRJA,The Couch Tomato Cafe,102 Rector St,40.0247731,-75.2213162,4.0,"lunch, dinner",$$,Italian,Not Applicable
8pqdJjefYq-a9IBSJJmKwA,The Dandelion,124 S 18th St,39.951004,-75.170636,4.0,dinner,$$,British,Not Applicable
hdtnpHXn-iIFTzPLvoOK0Q,The Dutch,1527 S 4th St,39.9288513959,-75.1521847471,4.0,"lunch, brunch, breakfast",$$,Breakfast & Brunch,Not Applicable
SHYPQbYqbfK4CwTDjtBH7Q,The Famous 4th Street Cookie Company,51 N 12th St,39.9530717477,-75.1594193432,4.0,Unknown,$$,Not Applicable,Not Applicable
qCpdeQYPf9i1EZhTnQgjtg,The Foodery at Rittenhouse,1710 Sansom St,39.9505843,-75.1693697,4.0,"lunch, dinner",$$,Not Applicable,Not Applicable
KDplhtRYnHOCnuIjIGR8fA,The Goat's Beard,4201 Main St,40.0238229063,-75.2201271057,4.0,dinner,$$,American (New),Not Applicable
wopwoiKIllIzcggK7HkTmw,The Gold Standard Cafe,4800 Baltimore Ave,39.9481839,-75.2196691,3.0,"lunch, brunch, breakfast",$$,American,Not Applicable
L_Rwy6oSAnMUY3NCDspxmA,The Good King Tavern,614 S 7th St,39.941969,-75.154207,4.0,dinner,$$,French,Not Applicable
dChRGpit9fM_kZK5pafNyA,The Love,130 S 18th St,39.9506555,-75.1708991,4.0,"dessert, lunch, dinner, brunch",$$$,American (New),Not Applicable
EhotxJEJxpMgCJ0F82Buvg,The Olde Bar,125 Walnut St,39.9469051201,-75.1440923726,4.0,dinner,$$$,American (New),Not Applicable
q-zV08jt6U-q05SMEuQJAQ,The Original Tony Lukes,39 E Oregon Ave,39.9141065086,-75.1487272304,4.0,"lunch, dinner",$$,Not Applicable,Not Applicable
QXGnmsKYANxOyZBqM-zlJA,The Plough & the Stars,123 Chestnut St,39.948524,-75.1437297,3.5,,$$,Irish,Not Applicable
LtLbT776NOAjva1ttA2h3w,The QUICK FIXX,1511 South St,39.944064,-75.1676029,4.0,"lunch, dinner",$$,Italian,Not Applicable
iWy6Wft0MMO9Ud2wM93frg,The Sidecar Bar & Grille,2201 Christian St,39.9418939,-75.1794584,4.0,dinner,$$,American (New),Not Applicable
7mpYTDb24SywNMRn3yeakQ,The Twisted Tail,509 S 2nd St,39.9418766,-75.1451988,4.0,"latenight, dinner",$$,American,Not Applicable
Wtr51cNrv1pYyIRg_IawYQ,The Victor Cafe,1303 Dickinson St,39.931653,-75.166327,4.5,dinner,$$,Italian,Not Applicable
P2Lm1g_RztvIaH4daQsXoQ,Three Monkeys Cafe,9645 James St,40.053857,-74.98396,3.5,"lunch, dinner",$$,American (New),Not Applicable
_OgwyI_0mGs620_ZfKgzbg,Tierra Colombiana Restaurant,4535 N 5th St,40.0205736,-75.1337987,4.0,dinner,$$,Latin American,Cuban
J36em-jyd2inHyXC20jtXA,Tiffin,710 W Girard Ave,39.9701111,-75.1486779,3.5,dinner,$$,Indian,Pakistani
vtSisxaozZ7HWpBl_W7VaQ,Time,1315 Sansom St,39.9500001533,-75.1625513634,4.0,"latenight, dinner",$$,American (New),Not Applicable
7z16CBc74GhbyqalwZrJUQ,Ting Wong Restaurant,138 N 10th St,39.954754,-75.156191,4.0,"lunch, dinner",$$,Asian Fusion,Chinese
gnpyyeWQ53WlDMJEq-YA_w,Tinto,114 S 20th St,39.9515011,-75.1738449,4.0,dinner,$$$,Spanish,Basque
UQZ4p6xb_7gY7UXHmBzceg,Tom's Dim Sum,59 N 11th St,39.9532889,-75.1578543,3.5,"lunch, dinner",$$,Chinese,Shanghainese
IWHdx0NhDKADkGOgXgOFKQ,Tommy DiNic's,1136 Arch St,39.95347837,-75.1593960603,4.0,lunch,$$,American (Traditional),Not Applicable
K6hAv8V2cTuXQtU3VHAD6w,Tres Jalapenos,901 S 8th St,39.9384274,-75.1561557,3.5,"lunch, dinner",$$,Mexican,Not Applicable
eJaeTZlIdM3HWCq__Ve4Wg,Tria Cafe Rittenhouse,123 S 18th St,39.9509483,-75.1704197,4.5,,$$$,Modern European,Not Applicable
Q-prSTdggNlxAEFV88BZOw,Tria Cafe Wash West,1137 Spruce St,39.9466238,-75.1609139,4.5,dinner,$$,Modern European,American (New)
SDL247FlOnScJfuNjZESxg,Twenty Manning,261 S 20th St,39.9486084,-75.1740323,3.5,dinner,$$,American (New),Middle Eastern
40O7uKX-uAG_JDrS-OM85w,Umai Umai,533 N 22nd St,39.9646735,-75.1741002,4.5,dinner,$$,Asian Fusion,Japanese
xQE1fuwKCXJEBcJgSSCNbw,Urban Farmer Philadelphia,1850 Benjamin Franklin Pkwy,39.957207,-75.1699827,4.0,"lunch, dinner, brunch",$$$,American (Traditional),Not Applicable
-v8dtO9BZmKidXLMohiQhQ,Urban Saloon,2120 Fairmount Ave,39.9670245,-75.1729544,3.0,"latenight, dinner, brunch",$$,American (New),Not Applicable
a_fp9I18WcbP86rQ4c_QZQ,Uzbekistan Restaurant,12012 Bustleton Ave,40.1226988,-75.0162309,4.0,dinner,$$,Uzbek,Russian
Cjwb7VQGP0u2eWYj1wnO3g,Vango Lounge & Skybar,116 S 18th St,39.9511992,-75.1706583,2.0,Unknown,$$,Mediterranean,Greek
1UNJeHTsS7WS9RxRzHw06g,Varga Bar,941 Spruce St,39.9462043942,-75.1577992928,3.5,dinner,$$,American,Not Applicable
qBwOLby0sOJd3QG1o76W2w,Veda - Modern Indian Bistro,1920 Chestnut St,39.9517805,-75.1729152,4.0,"lunch, dinner",$$,Indian,Not Applicable
2CDI713ATuxHfnB5b-sBdw,Vedge,1221 Locust St,39.9479310476,-75.1614279837,4.5,dinner,$$$,Not Applicable,Not Applicable
mtvT7uRey3F395STFRM1Tg,Vernick Food & Drink,2031 Walnut St,39.950759,-75.1748461,4.5,dinner,$$$$,American (New),Not Applicable
wUnLSg_GKfEIQ5CQQ770_g,Vetri Cucina,1312 Spruce St,39.9466441,-75.1631867,4.5,dinner,$$$$,Italian,Cuban
FqOCC8Y9xryaX7sIBJcrxA,Vic Sushi Bar,2035 Sansom St,39.9515773,-75.174834,4.0,"lunch, dinner",$$,Japanese,Not Applicable
14ZGwnDyydXdSBsLXpSUrA,Vientiane Café,4728 Baltimore Ave,39.9483087,-75.2178905,4.0,dinner,$$,Vietnamese,Thai
SPEXSaryxJmVpy8QoRz7Tg,Vietnam Cafe,816 S 47th St,39.9481782,-75.2168865,4.0,dinner,$$,Vietnamese,Not Applicable
zRjUMHQJ5gAmFhcXZtLacA,Vietnam Restaurant,221 N 11th St,39.9563297,-75.157069,4.0,dinner,$$,Vietnamese,Not Applicable
Vnagnur1os0ZduOpvDH27A,Villa Di Roma,936 S 9th St,39.9379512,-75.158238,4.0,dinner,$$,Italian,Not Applicable
EtKSTHV5Qx_Q7Aur9o4kQQ,Village Whiskey,118 S 20th St,39.9514165949,-75.1737677917,4.0,dinner,$$,American (New),Not Applicable
2pLIQ0RHSmUbF0eIRT0LYg,Vintage Wine Bar,129 S 13th St,39.9495566,-75.1617091,4.0,dinner,$$,French,Not Applicable
ZKPrXH_GNW_AtZ31tP3NmA,White Dog Cafe,3420 Sansom St,39.9535582,-75.1929054,4.0,"lunch, dinner, brunch",$$,American (New),American (Traditional)
ktM6aYuzqWd-kA8SIWswiQ,Winnie's Manayunk,4266 Main St,40.024735,-75.2222673,3.5,"lunch, brunch",$$,American (Traditional),Not Applicable
hUmHwBQtGg0iH-PZakQJDw,Wm Mulherin's Sons,1355 N Front St,39.971709,-75.135062,4.5,dinner,$$$,Italian,Szechuan
Jn4tRtjIuz6MBCykQySpeg,Woodrow's Sandwich Shop,630 South St,39.9419789,-75.1532317,4.5,lunch,$$,Not Applicable,Not Applicable
wPi7p5fZyGTOjDU28IlTqA,Woody's,202 S 13th St,39.949064,-75.16241,3.0,Unknown,$$$$,American (Traditional),Not Applicable
-5Rah4ZvWsDu4oilUZxhtw,World Cafe Live,3025 Walnut St,39.9520744759,-75.1851766256,4.0,dinner,$$,American,Not Applicable
s-Ff-8M5-AR-5jl59lCj1w,Xfinity Live! Philadelphia,1100 Pattison Ave,39.9044484999,-75.1696318388,3.0,"latenight, dinner",$$,American (New),Not Applicable
bLJP0fVgscuUQy0hE_CRXA,Xiandu Thai,1119 Walnut St,39.9490512,-75.159888,4.0,"lunch, dinner",$$,Thai,Not Applicable
17MK8qagV374AuUA4sXuIA,XIX Nineteen,"200 S Broad St, Fl 19",39.949104,-75.164768,3.5,dinner,$$$,American (New),Seafood
1UNorskttXSWuEcgzKzXcA,Xochitl,408 S 2nd St,39.9428742,-75.1456449,3.5,dinner,$$$,Asian Fusion,Mexican
eoN0GAIRV0WmwUm7FmzKgQ,Yakitori Boy,211 N 11th St,39.9559497,-75.1571603,3.5,"latenight, dinner",$$,Japanese,Not Applicable
KQgCflC8eqJU5kvJkByXzw,Yamitsuki Ramen,1028 Arch St,39.9535423,-75.1574552,3.5,"lunch, dinner",$$,Japanese,Not Applicable
hL76rhaLE86ZJvZBuMeb6Q,Yanako,4345 Main St,40.0256009,-75.2234981,4.0,dinner,$$,Japanese,Not Applicable
IvAa7PvfOYl0xRML5W3ebg,Yards Brewing Company,500 Spring Garden St,39.9609706195,-75.146908,4.0,Unknown,$$,American (Traditional),American (New)
ctHjyadbDQAtUFfkcAFEHw,Zahav,237 St James Pl,39.9462611465,-75.1451350779,4.5,dinner,$$$$,Middle Eastern,Israeli
YzluF3FNGjnW-tOrLZt8JA,Zama,128 S 19th St,39.9509073,-75.1723929,3.5,dinner,$$$,Japanese,Not Applicable
-OIUunijjcq_ZzyyQhPPFQ,Zorba's Taverna,2230 Fairmount Ave,39.9671642,-75.1748969,4.5,dinner,$$,Mediterranean,Greek
